City_ID,City,Country,Max Temp,Current Description,Lat,Lng,Hotel Name
2,Bonthe,SL,81.09,few clouds,7.5264,-12.505,Bonthe Holiday Village
4,Bethel,US,78.35,scattered clouds,41.3712,-73.414,Courtyard by Marriott Danbury
5,Saint-Philippe,RE,76.59,scattered clouds,-21.3585,55.7679,"Chambres d'hôte ""La Trinité"""
6,Isangel,VU,75.51,overcast clouds,-19.55,169.2667,Tanna Lodge
7,Bac Lieu,VN,83.07,overcast clouds,9.285,105.7244,Khách sạn Sài Gòn Bạc Liêu
8,Rikitea,PF,77.54,clear sky,-23.1203,-134.9692,People ThankYou
10,Bambous Virieux,MU,75.45,scattered clouds,-20.3428,57.7575,Casa Tia Villa
11,Butaritari,KI,80.67,overcast clouds,3.0707,172.7902,Isles Sunset Lodge
12,Port Elizabeth,ZA,61.32,clear sky,-33.918,25.5701,39 On Nile Guest House
13,Kitgum,UG,70.52,overcast clouds,3.2783,32.8867,Jaflo Gardens Hotel
16,Kodiak,US,53.11,clear sky,57.79,-152.4072,Best Western Kodiak Inn And Convention Center
19,Hermanus,ZA,58.3,clear sky,-34.4187,19.2345,Misty Waves Boutique Hotel
20,Jaen,ES,72.93,overcast clouds,38.0,-3.5,Hotel TRH Baeza
21,Carutapera,BR,78.37,light rain,-1.195,-46.02,Lidera
22,Port-Gentil,GA,80.56,scattered clouds,-0.7193,8.7815,Fengshui Residence
24,Sitka,US,51.69,broken clouds,57.0531,-135.33,Westmark Sitka
25,Agadir,MA,77.45,overcast clouds,30.4202,-9.5982,Iberostar Founty Beach
26,Souillac,MU,75.58,scattered clouds,-20.5167,57.5167,Shanti Maurice Resort & Spa
27,Lebu,CL,57.02,overcast clouds,-37.6167,-73.65,Hostal Las Lilas
29,Camacha,PT,63.82,broken clouds,33.0833,-16.3333,Hotel Porto Santo & Spa
31,Iracoubo,GF,79.79,few clouds,5.4802,-53.2011,Le Gîte d’Iracoubo
33,Katsuura,JP,65.01,overcast clouds,35.1333,140.3,Katsuura Hotel Mikazuki
34,Mahebourg,MU,75.49,scattered clouds,-20.4081,57.7,Shandrani Beachcomber Resort & Spa
36,Arraial Do Cabo,BR,76.86,clear sky,-22.9661,-42.0278,Pousada Porto Praia
37,Shcherbynivka,UA,50.45,overcast clouds,48.3949,37.791,KAWASAKI
38,Hobart,AU,50.05,clear sky,-42.8794,147.3294,St Ives Hobart Accommodation Tasmania
39,Castro,BR,64.22,scattered clouds,-24.7911,-50.0119,CHACARA BAILLY
41,Port Alfred,ZA,61.61,clear sky,-33.5906,26.891,The Halyards Hotel
42,Atuona,PF,78.78,clear sky,-9.8,-139.0333,Villa Enata
46,Hithadhoo,MV,83.66,overcast clouds,-0.6,73.0833,Scoop Guest House
47,Nisia Floresta,BR,79.61,light rain,-6.0911,-35.2086,Rancho Crepusculo
48,Constitucion,CL,61.02,overcast clouds,-35.3333,-72.4167,Hotel Boutique Las Azucenas
50,Ahipara,NZ,51.96,clear sky,-35.1667,173.1667,Ahipara Holiday Park
51,Ugoofaaru,MV,84.04,broken clouds,5.6667,73.0,Ungoofaaru Inn
53,Georgetown,MY,82.33,few clouds,5.4112,100.3354,Cititel Penang
54,Imperia,IT,63.09,few clouds,43.9667,7.7833,La Stregatta
56,Marawi,PH,69.17,broken clouds,7.9986,124.2928,Derogongan Residence
58,Falam,MM,60.67,scattered clouds,22.9167,93.6833,Falang Government Guesthouse
59,Alamosa,US,78.78,clear sky,37.4695,-105.87,Best Western Alamosa Inn
60,Dali,CN,60.51,overcast clouds,25.7,100.1833,Dali Travelling With Hostel
61,Ponta Do Sol,PT,71.01,few clouds,32.6667,-17.1,Hotel do Campo
64,Surt,LY,64.89,overcast clouds,31.2089,16.5887,الهادي ابوشعاله سرت
65,Jamestown,US,76.64,clear sky,42.097,-79.2353,Hampton Inn & Suites Jamestown
67,Saskatoon,CA,59.99,clear sky,52.1168,-106.6345,Sheraton Cavalier Saskatoon Hotel
69,Limenaria,GR,64.94,few clouds,40.6261,24.5786,Thalassies Hotel
70,Busselton,AU,57.06,light rain,-33.65,115.3333,Observatory Guest House
71,Bredasdorp,ZA,54.37,clear sky,-34.5322,20.0403,Bredasdorp Country Manor
72,Pouebo,NC,73.15,overcast clouds,-20.4,164.5667,RIVÂT LODGE
73,Abu Dhabi,AE,82.96,clear sky,24.4667,54.3667,Beach Rotana
76,Mataura,NZ,51.48,few clouds,-46.1927,168.8643,Ellie's Villa
77,Vila Franca Do Campo,PT,61.21,overcast clouds,37.7167,-25.4333,Pestana Bahia Praia
78,Viedma,AR,59.13,overcast clouds,-40.8135,-62.9967,Hotel Cristal
79,Bluff,NZ,51.8,few clouds,-46.6,168.3333,Bluff Homestead - Guesthouse & Campervan Park
80,Awbari,LY,73.08,clear sky,26.5921,12.7805,فندق أوباري
81,Launceston,AU,54.81,overcast clouds,-41.45,147.1667,Hotel Grand Chancellor Launceston
82,Vredendal,ZA,56.44,clear sky,-31.6683,18.5012,Tharrakamma Guest House
83,Majene,ID,78.55,overcast clouds,-3.5403,118.9707,Kost Putri RABBANI
87,Alyangula,AU,77.67,few clouds,-13.8483,136.4192,Groote Eylandt Lodge
88,Sao Filipe,CV,73.42,overcast clouds,14.8961,-24.4956,Hotel Xaguate
91,Saint-Pierre,RE,76.68,overcast clouds,-21.3393,55.4781,Alize Plage
93,Ribeira Grande,PT,61.2,few clouds,38.5167,-28.7,Quinta da Meia Eira
94,Lengshuitan,CN,64.18,overcast clouds,26.4111,111.5956,Jialong Hotel
95,Tagusao,PH,80.35,scattered clouds,9.1924,117.8141,Green Villa beach resort
96,Hambantota,LK,80.49,overcast clouds,6.1241,81.1185,Bungalow 63
97,Kapaa,US,80.58,broken clouds,22.0752,-159.319,Sheraton Kauai Coconut Beach Resort
99,Yokadouma,CM,67.55,broken clouds,3.5167,15.05,Hôtel De Ville De Yokadouma
100,Cidreira,BR,63.72,scattered clouds,-30.1811,-50.2056,Hotel Castelo
106,Esperance,AU,64.98,overcast clouds,-33.8667,121.9,Hospitality Esperance
107,Mayo,US,71.76,overcast clouds,38.8876,-76.5119,Resorts Resource Group International
108,Kalmunai,LK,80.51,overcast clouds,7.4167,81.8167,VS Villa
109,Kahului,US,84.22,scattered clouds,20.8947,-156.47,Maui Seaside Hotel
110,Slupca,PL,69.21,scattered clouds,52.2873,17.8719,Hotel Magnat
111,Flin Flon,CA,54.01,overcast clouds,54.7682,-101.865,Victoria Inn Flin Flon
112,Guerrero Negro,MX,67.19,overcast clouds,27.9769,-114.0611,"Casa Laguna, Bed & Breakfast"
113,Virginia Beach,US,61.05,light intensity drizzle,36.8529,-75.978,Hilton Virginia Beach Oceanfront
115,Alta Floresta,BR,82.31,overcast clouds,-9.8756,-56.0861,Floresta Amazonica Hotel
116,Thompson,CA,56.19,overcast clouds,55.7435,-97.8558,Burntwood Hotel
117,Brokopondo,SR,82.13,scattered clouds,4.75,-55.1667,Matu Island
118,Lumberton,US,81.32,clear sky,34.6182,-79.0086,"Country Inn & Suites by Radisson, Lumberton, NC"
119,Sint-Gillis-Waas,BE,68.05,scattered clouds,51.228,4.1206,Fruithof Tack
121,Hilo,US,82.27,scattered clouds,19.7297,-155.09,Hilo Hawaiian Hotel
122,Cockburn Town,TC,80.67,clear sky,21.4612,-71.1419,Osprey Beach Hotel
123,Lagoa,PT,57.92,broken clouds,39.05,-27.9833,Casa Das Faias
124,Oxapampa,PE,66.11,scattered clouds,-10.5775,-75.4017,Hotel Heidinger
125,Ahuimanu,US,80.31,clear sky,21.4447,-157.8378,Paradise Bay Resort
126,Kindersley,CA,58.78,clear sky,51.4668,-109.1682,Kindersley Inn
128,Ambovombe,MG,67.55,few clouds,-25.1667,46.0833,RELAHARA
130,Nago,JP,76.05,heavy intensity rain,26.5881,127.9761,Hotel Yugaf Inn Okinawa
131,Sao Joao Da Barra,BR,80.69,few clouds,-21.6403,-41.0511,Pousada Porto De Canoas
132,Amboasary,MG,67.35,clear sky,-25.0333,46.3833,Le Bon Samaritain
133,Lorengau,PG,81.84,overcast clouds,-2.0226,147.2712,Lorengau Harbourside Hotel
134,Buchanan,LR,80.44,scattered clouds,5.8808,-10.0467,Kamaneahn Hotel Inc
136,Caravelas,BR,75.02,broken clouds,-17.7125,-39.2481,Pousada dos Navegantes
138,Vao,NC,73.56,overcast clouds,-22.6667,167.4833,Hotel Kou-Bugny
139,Carnarvon,AU,68.07,scattered clouds,-24.8667,113.6333,Hospitality Carnarvon
140,Praia,CV,75.74,clear sky,14.9215,-23.5087,LT Aparthotel
142,Puerto Ayora,EC,80.56,scattered clouds,-0.7393,-90.3518,Finch Bay Galapagos Hotel
143,East London,ZA,62.11,clear sky,-33.0153,27.9116,Tu Casa
147,Fare,PF,81.79,light rain,-16.7,-151.0167,Maitai Lapita Village Huahine
149,Kyela,TZ,69.01,clear sky,-9.5833,33.85,ML Inn
150,Pemba,MZ,76.21,light rain,-12.974,40.5178,Guesthouse Samotina
152,Laguna,US,68.29,clear sky,38.421,-121.4238,"Holiday Inn Express & Suites Elk Grove Central - Hwy 99, an IHG Hotel"
153,Playas,EC,74.1,overcast clouds,-2.6333,-80.3833,Hostal Promenade
154,Fortuna,US,57.85,overcast clouds,40.5982,-124.1573,Super 8 by Wyndham Fortuna
155,Victoria,HK,80.65,light rain,22.2855,114.1577,Mini Central
156,Broken Hill,AU,56.86,overcast clouds,-31.95,141.4333,Royal Exchange Hotel
158,Kristianstad,SE,52.95,drizzle,56.0313,14.1524,First Hotel Christian IV
159,Dalby,AU,66.97,light rain,-27.1833,151.2667,Kobbers Motor Inn Dalby
160,Codrington,AU,56.52,overcast clouds,-38.2667,141.9667,Codrington Gardens Bed And Breakfast
162,Banjar,ID,78.26,overcast clouds,-8.19,114.9675,The Hamsa Resort
163,Cape Town,ZA,57.11,clear sky,-33.9258,18.4232,"Radisson Blu Hotel Waterfront, Cape Town"
165,Gilgit,PK,71.13,scattered clouds,35.9221,74.3087,Tourist Hamlet Gilgit
166,Ituango,CO,68.88,overcast clouds,7.1712,-75.764,HOTEL LA CASONA ITUANGO
168,Lacolle,CA,82.65,clear sky,45.0834,-73.3659,Motel Lacolle
170,Solec Kujawski,PL,71.98,clear sky,53.0837,18.2257,MM-Rooms
171,Kavieng,PG,82.22,overcast clouds,-2.5744,150.7967,Nusa Island Retreat
172,Lompoc,US,74.57,clear sky,34.6391,-120.4579,"Holiday Inn Express Lompoc, an IHG Hotel"
173,Presidencia Roque Saenz Pena,AR,72.03,clear sky,-26.7852,-60.4388,Hotel Gualok
174,Sibu,MY,75.33,broken clouds,2.3,111.8167,RH HOTEL (4 Star)
175,Bankfoot,GB,54.46,scattered clouds,56.5,-3.5,Bankfoot Inn
177,Nantucket,US,51.94,mist,41.2835,-70.0995,Jared Coffin House
178,Miri,MY,78.08,light rain,4.4148,114.0089,"Mega Hotel, Miri"
179,Oistins,BB,82.49,few clouds,13.0667,-59.5333,Butterfly Beach Hotel
181,Mar Del Plata,AR,55.42,clear sky,-38.0023,-57.5575,Gran Hotel Mar del Plata
182,Saint-Joseph,RE,75.58,scattered clouds,-21.3667,55.6167,"""Plantation Bed and Breakfast"
183,Kavaratti,IN,84.88,broken clouds,10.5669,72.642,Hotels in Lakshadweep Islands
184,Tiarei,PF,84.22,light rain,-17.5333,-149.3333,Le Rocher de Tahiti
185,Vaini,TO,73.56,light intensity drizzle,-21.2,-175.2,Keleti Beach Resort
186,Sao Sebastiao Do Cai,BR,66.16,broken clouds,-29.5867,-51.3756,Agropecuária Lopes
187,Mahina,PF,83.97,scattered clouds,-17.5065,-149.489,Guest Beach Bungalow Tahiti
190,Bandarbeyla,SO,82.02,overcast clouds,9.4942,50.8122,JABIR HOTEL
192,Bengkulu,ID,77.83,broken clouds,-3.8004,102.2655,Grage Hotel Bengkulu
194,Xai-Xai,MZ,68.22,broken clouds,-25.0519,33.6442,Complexo da Familia
196,Tocopilla,CL,68.07,few clouds,-22.092,-70.1979,Hotel Galvarino
197,Mersing,MY,78.24,broken clouds,2.4312,103.8405,Timotel Hotel
198,Paragominas,BR,80.74,broken clouds,-2.9667,-47.4833,INOVA
201,Gotsu,JP,62.94,overcast clouds,35.0,132.2167,Yurusato
202,Krasnoye,UA,58.75,overcast clouds,49.9145,24.6134,Feniks
204,Comodoro Rivadavia,AR,57.06,clear sky,-45.8667,-67.5,Austral Hotel
205,Ofunato,JP,55.92,overcast clouds,39.0717,141.7167,Ofunato Hot Spring
207,Manokwari,ID,77.99,overcast clouds,-0.8667,134.0833,Swiss Belhotel Manokwari
208,Rawson,AR,56.8,overcast clouds,-43.3002,-65.1023,Hosteria Sampedro
209,Saint-Leu,RE,76.06,broken clouds,-21.15,55.2833,La Caz Oceane
210,Ko Samui,TH,82.96,overcast clouds,9.5357,99.9357,The Passage
211,Dingle,PH,78.22,broken clouds,10.9995,122.6711,SEGAYA PROPERTY
212,La Ronge,CA,50.58,scattered clouds,55.1001,-105.2842,Northland Motor Hotel
214,Ashland,US,82.94,scattered clouds,40.8167,-82.2665,SureStay
215,Banyo,CM,68.49,moderate rain,6.75,11.8167,Motel JOMBA
216,Changzhou,CN,61.84,overcast clouds,31.7833,119.9667,Gongyuan Hotel
217,Kasempa,ZM,63.01,clear sky,-13.4584,25.8338,Lolelunga Forest Reserve
218,Yamada,JP,56.64,overcast clouds,39.4667,141.95,Iroha-ya Inn
220,Faanui,PF,81.72,light rain,-16.4833,-151.75,Bora-Bora Pearl Beach Resort & Spa
221,Chuy,UY,60.15,overcast clouds,-33.6971,-53.4616,Nuevo Hotel Plaza
222,Swan River,CA,62.08,broken clouds,52.1058,-101.2676,Super 8 by Wyndham Swan River MB
223,Kanniyakumari,IN,81.72,overcast clouds,8.0833,77.5667,Sparsa Kanyakumari
224,Avarua,CK,82.45,broken clouds,-21.2078,-159.775,Paradise Inn
226,Urumqi,CN,61.75,clear sky,43.801,87.6005,Hua Ling Grand Hotel Urumqi
227,Huarmey,PE,69.87,few clouds,-10.0681,-78.1522,Hotel Miramar
231,Ankazoabo,MG,64.06,clear sky,-22.2833,44.5167,ENCEIN BUREAU CISCO
232,Quatre Cocos,MU,75.31,few clouds,-20.2078,57.7625,Sunrise Attitude Hotel
233,Kalianget,ID,80.46,overcast clouds,-7.05,113.9333,Pesanggrahan Garam
236,Kondagaon,IN,77.59,overcast clouds,19.6,81.6667,AYAN MOTER
239,Bathsheba,BB,83.01,few clouds,13.2167,-59.5167,Atlantis Hotel
240,Ojuelos De Jalisco,MX,80.56,clear sky,21.8667,-101.5833,Hotel La Paz
242,Trincomalee,LK,83.32,overcast clouds,8.5711,81.2335,Welcombe Hotel
246,Saint George,US,75.79,haze,37.1041,-113.5841,Best Western Plus Abbey Inn
248,The Valley,AI,84.06,overcast clouds,18.217,-63.0578,CeBlue Villas & Beach Resort
249,Richards Bay,ZA,72.32,overcast clouds,-28.783,32.0377,BON Hotel Waterfront Richards Bay
250,Maceio,BR,76.44,broken clouds,-9.6658,-35.7353,Hotel Ponta Verde Maceió
253,Portland,US,62.74,broken clouds,45.5234,-122.6762,Embassy Suites by Hilton Portland Downtown
254,Slave Lake,CA,53.37,broken clouds,55.2834,-114.769,Super 8 by Wyndham Slave Lake AB
255,Stawell,AU,54.82,light rain,-37.05,142.7667,Motel Stawell
256,Kenai,US,54.03,clear sky,60.5544,-151.2583,Aspen Extended Stay Suites
258,Luganville,VU,78.66,overcast clouds,-15.5333,167.1667,The Espiritu Hotel
259,Panchagarh,BD,77.27,clear sky,26.3313,88.562,Central Guest House (Pvt.) Ltd.
261,Guozhen,CN,58.26,broken clouds,34.3659,107.359,Yucai Hotel
262,Ukiah,US,66.16,few clouds,39.1502,-123.2078,Hampton Inn Ukiah
265,Sept-Iles,CA,52.05,overcast clouds,50.2001,-66.3821,Comfort Inn
270,Korla,CN,72.34,broken clouds,41.7597,86.1469,Gulisitan Hotel
271,Kieta,PG,78.76,overcast clouds,-6.2167,155.6333,Uruna Bay Retreat
272,Fuling,CN,66.58,overcast clouds,29.7022,107.3919,Yingbin Hostel
273,Mogadishu,SO,81.7,clear sky,2.0371,45.3438,Hotel Juba
274,Chongwe,ZM,64.98,broken clouds,-15.3292,28.682,Grakas Lodge
275,Kisangani,CD,72.61,light rain,0.5167,25.2,Grand Ramela Hotel
276,Quetame,CO,68.05,overcast clouds,4.3323,-73.8614,Hotel Orquídea Quetame
277,Zharkent,KZ,64.81,overcast clouds,44.1628,80.0,гостиница Satti
279,Wakkanai,JP,50.29,overcast clouds,45.4094,141.6739,Hyōsetsu-sō
280,Monrovia,LR,80.37,broken clouds,6.3005,-10.7969,Sunset Inn
282,Marsa Matruh,EG,65.35,overcast clouds,31.3525,27.2453,Beau Site
283,Flinders,AU,62.38,moderate rain,-34.5833,150.8552,Shellharbour Resort & Conference Centre
285,Lasa,IT,54.25,broken clouds,46.6166,10.7002,Pension Feldgärtenhof
286,Dunmore Town,BS,74.21,light rain,25.5,-76.65,Coral Sands Hotel
287,Kruisfontein,ZA,53.6,clear sky,-34.0033,24.7314,Oyster Bay House Rental
288,Baculin,PH,77.52,overcast clouds,7.4525,126.5842,Baculin Cove Beach Resort
291,Spearfish,US,72.27,clear sky,44.4908,-103.8594,Travelodge by Wyndham Spearfish
293,Hermon,US,77.31,few clouds,44.8101,-68.9134,Pumpkin Patch RV Resort
294,San Quintin,MX,64.08,overcast clouds,30.4833,-115.95,Don Eddie's Sport Fishing Center
296,Barranca,PE,67.69,few clouds,-10.75,-77.7667,El Olivar Hospedaje
297,Vila Velha,BR,80.55,few clouds,-20.3297,-40.2925,Hotel Vitória Palace
300,Cochrane,CA,55.62,scattered clouds,51.1834,-114.4687,Days Inn & Suites by Wyndham Cochrane
301,Boali,CF,72.63,broken clouds,4.8005,18.1275,Auberge des Cocotiers Boali poste
302,Anori,BR,83.7,overcast clouds,-3.7728,-61.6442,Novo Hotel 5 Irmãos
304,Perene,PE,81.41,scattered clouds,-10.9492,-75.2261,Hospedaje EL TIGRE
305,Grand Gaube,MU,75.6,few clouds,-20.0064,57.6608,Veranda Paul et Virginie Hotel & Spa
306,Praya,CV,75.74,clear sky,14.9215,-23.5087,LT Aparthotel
308,Bolnisi,GE,56.79,scattered clouds,41.4479,44.5384,Hotel Deutsche Muehle Bolnisi
311,Puerto Quijarro,BO,81.99,overcast clouds,-17.7833,-57.7667,Hotel palance
314,Neuquen,AR,53.49,light rain,-38.9516,-68.0591,Hotel del Comahue
318,Jardim,BR,78.39,clear sky,-21.4803,-56.1381,Estancia Hotel - Jardim MS
319,Clovis,US,68.04,few clouds,36.8252,-119.7029,Fairfield Inn & Suites by Marriott Fresno Clovis
320,Steinbach,DE,73.38,broken clouds,50.1667,8.5667,Mercure Hotel Frankfurt Eschborn Helfmann Park
322,Samarai,PG,82.38,overcast clouds,-10.6167,150.6667,Nuli Sapi
323,Ampanihy,MG,63.97,clear sky,-24.7,44.75,Angora Hotel
324,Sisophon,KH,78.31,light rain,13.5859,102.9737,Pyramid Hotel
325,North Bend,US,58.91,clear sky,43.4065,-124.2243,Red Lion Hotel Coos Bay
326,Shakiso,ET,58.21,light rain,5.75,38.9167,Bealu Girma Hottel
327,Banda Aceh,ID,80.67,overcast clouds,5.5577,95.3222,OYO 884 Rumoh PMI Hotel
328,Mayang Imphal,IN,69.89,overcast clouds,24.6167,93.8833,Ningthoujam leirak
331,Sokoni,TZ,80.92,clear sky,-6.4333,39.55,Ujamaa Beach Resort
333,Rio Gallegos,AR,50.05,clear sky,-51.6226,-69.2181,Hotel Santa Cruz
334,Port Augusta,AU,54.66,clear sky,-32.5,137.7667,Majestic Oasis Apartments
335,Canutama,BR,83.84,overcast clouds,-6.5339,-64.3831,Hotel Jhennifer
337,Birjand,IR,69.46,clear sky,32.8663,59.2211,Birjand Tourist Hotel
339,Wajir,KE,83.14,overcast clouds,1.7471,40.0573,Al-bustan Hotel And Restaurant.
340,Sola,VU,80.74,light rain,-13.8833,167.55,Leumerus Bungalows
341,Rawlins,US,71.49,clear sky,41.7911,-107.2387,"Holiday Inn Express Rawlins, an IHG Hotel"
344,Liancheng,CN,61.92,overcast clouds,24.0519,105.075,Kexiang Hotel
345,Tongren,CN,62.38,overcast clouds,27.7172,109.1853,Fanjing Mountain International Conference Center
346,Khandbari,NP,69.1,few clouds,27.3747,87.2039,Sainik Hotel And Lodge
347,Abalak,RU,51.98,overcast clouds,58.1286,68.5944,Туристический комплекс Абалак
348,Westport,US,79.63,clear sky,41.1415,-73.3579,The Westport Inn
349,Alofi,NU,79.38,few clouds,-19.0595,-169.9187,Taloa Heights
350,Padang,ID,78.19,overcast clouds,-0.9492,100.3543,Mercure Padang
353,Honavar,IN,77.95,heavy intensity rain,14.2833,74.45,Hotel Sagar Residency
354,Lata,PT,57.97,overcast clouds,40.1629,-8.3327,Casa Maquia
355,Tezu,IN,71.51,moderate rain,27.9167,96.1667,Circuit House
356,Takahagi,JP,54.09,overcast clouds,36.7167,140.7167,Matsushimakan
357,Saldanha,ZA,57.63,clear sky,-33.0117,17.9442,Blue Bay Lodge
358,Mount Gambier,AU,51.71,mist,-37.8333,140.7667,The Commodore
360,Pionki,PL,65.05,broken clouds,51.476,21.4499,Imperium
361,Voh,NC,71.33,overcast clouds,-20.9667,164.7,Le gîte du Koniambo
362,Kiama,AU,62.58,light rain,-34.6833,150.8667,The Sebel Kiama Harbourside
364,Ponta Delgada,PT,61.52,scattered clouds,37.7333,-25.6667,Vila Nova Hotel
365,Drochia,MD,57.74,broken clouds,48.035,27.8161,Hotel Confort Drochia
366,Eyl,SO,83.25,broken clouds,7.9803,49.8164,Amiin Hotel
367,Cap Malheureux,MU,74.46,clear sky,-19.9842,57.6142,Pereybere Hotel & Spa
369,Waingapu,ID,75.33,few clouds,-9.6567,120.2641,Pondok Wisata Elim
373,Ewa Beach,US,80.55,scattered clouds,21.3156,-158.0072,Base Lodging
374,Daru,PG,77.83,heavy intensity rain,-9.0763,143.2092,Daru Lodge
375,Paracuru,BR,75.11,overcast clouds,-3.41,-39.0306,Hotel Vento Brasil
376,Laramie,US,73.78,clear sky,41.3114,-105.5911,Fairfield Inn & Suites by Marriott Laramie
377,Phan Thiet,VN,77.99,broken clouds,10.9333,108.1,Hotel Saigon-PT
380,Charcas,MX,79.81,clear sky,23.1333,-101.1167,Hotel El Malacate
381,Puerto Madryn,AR,56.25,overcast clouds,-42.7692,-65.0385,Hotel Tolosa
384,Jinchang,CN,51.4,overcast clouds,38.4953,102.1739,Mingshihui Jinchang International Hotel
389,Mombetsu,JP,51.42,overcast clouds,44.3525,143.3525,Okhotsk Palace Hotel
391,Coquimbo,CL,58.73,broken clouds,-29.9533,-71.3436,Hotel San Juan
392,Yanam,IN,80.24,overcast clouds,16.7333,82.2167,The Regency Hotel
393,Pemangkat,ID,80.47,overcast clouds,1.1667,108.9667,Ramah Kost KITA
394,Homer,US,50.77,clear sky,59.6425,-151.5483,Beluga Lake Lodge
396,Oruro,BO,55.78,clear sky,-17.9833,-67.15,Eden by BlueBay
397,Nishihara,JP,75.25,light intensity drizzle,26.1842,127.7558,Minshuku Agaihama
398,Lac Du Bonnet,CA,67.84,overcast clouds,50.2536,-96.0612,Drifter's Inn
399,Half Moon Bay,US,70.05,clear sky,37.4636,-122.4286,"The Ritz-Carlton, Half Moon Bay"
400,Amboise,FR,66.74,clear sky,47.4125,0.9827,Hotel Amboise Le Blason
402,Faya,SA,68.52,broken clouds,18.3851,42.4509,املاك خالد الشعشوع
403,Belo Horizonte,BR,76.55,overcast clouds,-19.9208,-43.9378,Hotel Financial
405,Chitipa,MW,58.39,clear sky,-9.7024,33.2697,Tulipoka Lodges
406,Sao Jose Da Coroa Grande,BR,77.68,clear sky,-8.8978,-35.1478,Crôa Mares Hotel
411,Along,IN,69.48,overcast clouds,28.1667,94.7667,Hotel West
412,Panguipulli,CL,53.76,overcast clouds,-39.6333,-72.3333,Cabañas Mis Viejos
415,Namatanai,PG,79.72,overcast clouds,-3.6667,152.4333,Seagulls Inn Namatani
416,Bulaevo,KZ,50.27,overcast clouds,54.9056,70.4439,"Игровой клуб ""ДОМ ИГР Z"""
417,Penzance,GB,52.48,clear sky,50.1186,-5.5371,Artist Residence Penzance
418,Trollhattan,SE,50.4,broken clouds,58.2333,12.4167,Dammen logi
420,Rio Grande,BR,66.31,overcast clouds,-32.035,-52.0986,Hotel Atlântico Rio Grande
421,Bahia Blanca,AR,61.05,broken clouds,-38.7196,-62.2724,Hotel Argos
422,Egyek,HU,58.98,broken clouds,47.6333,20.9,Márton Eszter
423,Quelimane,MZ,68.88,clear sky,-17.8786,36.8883,Hotel Flamingo
424,Sinjar,IQ,68.95,scattered clouds,36.3209,41.8754,زوماني فون 1
425,Djambala,CG,69.71,light rain,-2.5447,14.7533,Hotel Ravin D'or
429,Port Lincoln,AU,58.5,clear sky,-34.7333,135.8667,Port Lincoln Hotel
431,Sovetskiy,RU,52.25,overcast clouds,61.3614,63.5842,Apartment on Kievskaya 29
432,Mporokoso,ZM,63.79,scattered clouds,-9.3727,30.125,Government Guest House
433,Atasu,KZ,53.74,scattered clouds,48.6814,71.6433,Dostyk
437,Curvelo,BR,77.04,scattered clouds,-18.7564,-44.4308,Pontal Plaza Hotel
438,Hami,CN,68.25,overcast clouds,42.8,93.45,Laoyutang Resort
439,Broome,US,79.56,clear sky,42.2506,-75.833,Chenango Valley State Park
441,Meulaboh,ID,77.95,overcast clouds,4.1363,96.1285,Kost Pria
442,Tigao,PH,78.03,overcast clouds,9.2089,126.1761,Lavilla Beach Resort & Videoke
444,Beyneu,KZ,59.86,overcast clouds,45.3167,55.2,NUR
447,Kasongo,CD,70.88,light rain,-4.45,26.6667,Guest Hôtel
448,Sao Felix Do Xingu,BR,84.63,broken clouds,-6.6447,-51.995,Rio Xingu Camping
450,Karratha,AU,72.72,overcast clouds,-20.7377,116.8463,ibis Styles Karratha
452,Krutinka,RU,51.98,overcast clouds,56.0055,71.5113,Motel Uyut
453,Balkanabat,TM,73.44,clear sky,39.5108,54.3671,Nebitchi Hotel
454,Dongli,CN,74.03,overcast clouds,23.5656,116.8194,Chenghai Shizhang Donghuaqiao Hostel
457,Peniche,PT,65.08,overcast clouds,39.3558,-9.3811,Hotel Star inn Peniche
458,Fukagawa,JP,52.68,overcast clouds,43.7081,142.0392,Irumu Inn
460,Margate,GB,55.87,scattered clouds,51.3813,1.3862,Premier Inn Margate hotel
462,Guarda,PT,61.9,overcast clouds,40.5373,-7.2658,Hotel Lusitânia Congress & Spa
464,Kirando,TZ,74.84,scattered clouds,-7.4167,30.6,Lakeshore Lodge
466,Ambulu,ID,76.35,overcast clouds,-8.345,113.6058,Hotel Ambulu Jember
467,Tonj,SS,79.29,overcast clouds,7.2737,28.6822,Lakan Hotel
468,Yenagoa,NG,77.61,overcast clouds,4.9247,6.2642,Aridolf Resort Wellness and Spa
469,Naze,JP,68.68,light rain,28.3667,129.4833,Shishime Hotel
470,Paita,PE,70.68,clear sky,-5.0892,-81.1144,Hotel Náutico de Paita
472,Uyemskiy,RU,51.85,clear sky,64.4743,40.8524,Turkompleks Malyye Karely
473,Penaflor,CL,73.2,overcast clouds,-33.6167,-70.9167,Experiencia en Parcela Agroecológica
474,Geraldton,AU,63.01,overcast clouds,-28.7667,114.6,Broadwater Mariner Resort
476,El Sauzal,MX,61.41,scattered clouds,31.9,-116.6833,Hotel Las Rosas & Spa
478,Amuntai,ID,75.78,broken clouds,-2.4177,115.2494,Hotel Balqis
481,Bacarra,PH,79.66,few clouds,18.2529,120.6125,VYBE Hotel
483,Sorong,ID,81.82,moderate rain,-0.8833,131.25,Waigo Splash Hotel
484,Babu,CN,68.05,moderate rain,24.4167,111.5167,IU Hotel Hezhou Bus Terminal
485,Mabaruma,GY,84.27,scattered clouds,8.2,-59.7833,Monty Brooms Guest House
486,Bubaque,GW,77.76,broken clouds,11.2833,-15.8333,"Casa Dora, Bubaque"
487,Luanda,AO,77.0,few clouds,-8.8368,13.2343,EPIC SANA Luanda
489,Castletown,IE,52.29,few clouds,53.0281,-9.0686,Clare's Rock Hostel
492,Port Blair,IN,83.26,overcast clouds,11.6667,92.75,"Welcomhotel By ITC Hotels, Bay Island, Port Blair"
493,Olinda,BR,82.13,scattered clouds,-8.0089,-34.8553,Flat Quatro Rodas Olinda
494,Rocha,UY,58.6,overcast clouds,-34.4833,-54.3333,Hotel Arrarte
495,Ulladulla,AU,59.9,light rain,-35.35,150.4667,Sandpiper Motel
497,Stege,DK,52.09,light rain,54.987,12.2846,Møn Golf Resort - Hotel Præstekilde
498,Nouakchott,MR,80.53,clear sky,18.0858,-15.9785,HOTEL IMAN
499,Yarada,IN,82.72,thunderstorm,17.65,83.2667,Yarada Jungle Beach Resorts
500,Reconquista,AR,69.57,clear sky,-29.15,-59.65,Grand Hotel
501,San Cristobal,VE,78.98,overcast clouds,7.7669,-72.225,Pirineos
502,Touros,BR,77.11,heavy intensity rain,-5.1989,-35.4608,INN NEW HORIZON
503,Lask,PL,69.44,scattered clouds,51.5906,19.1328,Dzikie Wino Hotel & Restauracja
504,Kununurra,AU,66.18,overcast clouds,-15.7667,128.7333,Hotel Kununurra
505,Tibati,CM,68.43,moderate rain,6.4667,12.6333,Tibati Hotel
507,Sayyan,YE,67.46,clear sky,15.1718,44.3244,ملاطف ابوحورية
508,Kapoeta,SS,83.03,broken clouds,4.7717,33.5903,Eastgate Hotel
510,Russell,US,84.11,clear sky,32.3502,-85.1999,Macs
511,Anshun,CN,57.09,overcast clouds,26.25,105.9333,安顺麦吉风格酒店
512,Maragheh,IR,51.87,few clouds,37.3917,46.2398,Maragheh Grand Hotel
513,Chicama,PE,64.94,few clouds,-7.8447,-79.1469,Balihai Bungalows
514,Ljig,RS,65.1,scattered clouds,44.2301,20.2382,Сеоски туризам Србије
517,Simav,TR,50.14,clear sky,39.0882,28.9777,Simav Melisa Otel
518,Hirado,JP,66.38,light rain,33.3597,129.5531,Samson Hotel
519,Nakuru,KE,63.28,broken clouds,-0.2833,36.0667,Grill Park Nakuru
520,Shiyan,CN,54.7,broken clouds,32.6475,110.7781,Fenghuang Garden Holiday Hotel
521,Manakara,MG,68.38,light rain,-22.1333,48.0167,La Residence Manakara
523,Mayumba,GA,77.63,overcast clouds,-3.432,10.6554,LIKWALE LODGE
526,Zuenoula,CI,81.12,scattered clouds,7.4292,-6.0431,Hotel Prestige Zla
528,Makakilo City,US,79.12,broken clouds,21.3469,-158.0858,Marriott's Ko Olina Beach Club
529,Three Hills,CA,55.69,broken clouds,51.7001,-113.2686,Super 8 by Wyndham Three Hills AB
530,Buraydah,SA,84.36,clear sky,26.326,43.975,Mövenpick Qassim
531,Atakpame,TG,79.59,overcast clouds,7.5333,1.1333,Hôtel sahélien
532,Novo Aripuana,BR,83.39,overcast clouds,-5.1206,-60.3797,Hotel Ezequiel
533,Alpena,US,75.52,few clouds,45.0617,-83.4327,Days Inn by Wyndham Alpena
535,Hualmay,PE,69.39,clear sky,-11.0964,-77.6139,Hotel Villa Kitzia Huacho
536,Eston,CA,59.92,clear sky,51.1501,-108.7514,Hearthside Place B&B
537,Chapais,CA,75.31,broken clouds,49.7834,-74.8492,Hôtel Opémiska
538,Marsh Harbour,BS,74.61,clear sky,26.5412,-77.0636,Abaco Beach Resort
539,Shelburne,CA,81.12,clear sky,44.0787,-80.2041,The Retreat at the Farm
543,Hasaki,JP,59.4,overcast clouds,35.7333,140.8333,Inubosaki Kanko Hotel
544,Laje,BR,81.7,overcast clouds,-10.1833,-40.9667,NN Pousada
545,Adwa,ET,71.02,clear sky,14.1646,38.8955,Maay Assa Hotel
548,Tres Lagoas,BR,77.7,overcast clouds,-20.7511,-51.6783,Druds Express Hotel
550,Yuncheng,CN,55.13,overcast clouds,35.0231,110.9928,晋州快捷酒店
552,Saint-Felicien,CA,65.5,overcast clouds,48.6501,-72.4491,Hôtel du Jardin
553,Qiongshan,CN,77.61,broken clouds,20.0058,110.3542,Sun City Restaurant
555,Lichuan,CN,54.93,overcast clouds,30.3,108.85,Yuanlai Homestay
556,Chipinge,ZW,58.24,clear sky,-20.1883,32.6236,Chipinge Breeze Lodge
557,Talcahuano,CL,58.68,clear sky,-36.7167,-73.1167,departamento comodo
558,Namwala,ZM,64.87,clear sky,-15.7504,26.4384,Corner Point Lodge
559,Merke,KZ,58.19,overcast clouds,42.8728,73.1786,Gostinitsa Merki
561,Gusau,NG,80.98,moderate rain,12.1628,6.6614,GUEST INN
562,Parambu,BR,82.49,overcast clouds,-6.2111,-40.6944,Recanto das Amoras
563,Moose Factory,CA,77.4,broken clouds,51.2585,-80.6094,Moosonee Lilypad
564,Namibe,AO,72.54,clear sky,-15.1961,12.1522,Hotel Chik Chik Namibe
569,Rockland,US,78.48,broken clouds,41.1668,-74.0496,National Camp Association
572,Bam,IR,81.66,clear sky,29.106,58.357,Bam Tourist Hotel
574,Kloulklubed,PW,78.51,moderate rain,7.0419,134.2556,Storyboard Beach Resort
575,Puerto Penasco,MX,78.91,overcast clouds,31.3167,-113.5333,Playa Bonita Resort
576,Saint Anthony,US,78.82,broken clouds,45.0205,-93.218,Holiday Inn Express Roseville-St. Paul
577,Annau,TM,72.48,broken clouds,37.8876,58.516,"Гостиница ""Уссат инженер"""
578,Beaverlodge,CA,54.07,overcast clouds,55.2166,-119.4361,Side Trax Inn
579,Hirara,JP,78.22,few clouds,24.8,125.2833,Hotel Atoll Emerald Miyakojima
580,Asau,RO,56.32,overcast clouds,46.4333,26.4,Casa Mika Ciobanus
581,Elk,PL,56.68,broken clouds,53.8282,22.3647,Rydzewski
582,Abbeville,FR,59.49,overcast clouds,50.1,1.8333,Hôtel Mercure Abbeville Centre - Porte de la Baie de Somme
583,Knysna,ZA,56.35,clear sky,-34.0363,23.0471,Protea Hotel by Marriott Knysna Quays
584,Sungai Padi,TH,75.24,overcast clouds,6.0851,101.8766,237บอล&บาส
586,Port Macquarie,AU,62.89,light rain,-31.4333,152.9167,Rydges Port Macquarie
587,Liverpool,GB,55.81,few clouds,53.4106,-2.9779,Premier Inn Liverpool City Centre (Moorfields) hotel
588,Canico,PT,71.01,few clouds,32.6333,-16.85,Quinta Splendida Wellness & Botanical Garden
589,Beidao,CN,58.39,scattered clouds,34.5686,105.8933,Shell Tianshui Maiji District Erma Road Walking Street Hotel
590,Mount Isa,AU,64.17,overcast clouds,-20.7333,139.5,ibis Styles Mt Isa Verona
592,Covasint,RO,66.07,overcast clouds,46.2,21.6,SC WINE ROAD GLAMPING SRL
595,Abu Kamal,SY,76.8,few clouds,34.4506,40.9171,البوكمال
596,Ajdabiya,LY,67.42,overcast clouds,30.7554,20.2263,Almadina Hotel
599,Bako,ET,63.77,overcast clouds,5.7833,36.5667,Goh Hotel
600,Tura,IN,72.03,broken clouds,25.5198,90.2201,Hotel RIKMAN Continental
601,Curitibanos,BR,55.71,overcast clouds,-27.2828,-50.5844,Tortato Palace Hotel
604,Sabha,LY,73.78,clear sky,27.0377,14.4283,Foundation Taaj Asala for Historical Research and Archeology
605,Haapiti,PF,83.93,light rain,-17.5667,-149.8667,Linareva Moorea Beach Resort
610,Arcachon,FR,62.92,overcast clouds,44.5875,-1.0519,Hôtel All Suites Le Teich
611,Praia Da Vitoria,PT,60.76,overcast clouds,38.7333,-27.0667,Hotel Branco I
612,Antalaha,MG,73.06,light rain,-14.9003,50.2788,Hotel Vitasoa
613,Ventimiglia,IT,65.34,clear sky,43.7935,7.6026,Kaly
615,Dubbo,AU,59.13,moderate rain,-32.25,148.6167,Quality Inn Dubbo International
619,Sao Geraldo Do Araguaia,BR,82.24,clear sky,-6.4006,-48.555,Hotel Por do Sol
622,Nakamura,JP,66.94,light rain,32.9833,132.9333,Hotel Crown Hills Nakamura
623,Formosa,AR,71.58,few clouds,-26.1775,-58.1781,Asterión Hotel
626,Oyama,JP,67.59,overcast clouds,36.3,139.8,Toyoko Inn Oyama-eki Higashi-guchi No.1
627,Carlisle,US,78.82,clear sky,40.2015,-77.1889,Fairfield Inn & Suites by Marriott Carlisle
628,Kyabram,AU,56.88,light rain,-36.3167,145.05,Kyabram Motor Inn
629,Great Yarmouth,GB,53.42,clear sky,52.6083,1.7305,Comfort Hotel Great Yarmouth
631,Chimbote,PE,68.18,few clouds,-9.0853,-78.5783,Hotel Briliá
632,Dongzhen,CN,74.75,overcast clouds,22.3797,110.9389,茂名中汇时尚酒店
635,Parsabad,IR,57.15,broken clouds,39.6482,47.9174,Peacock Hotel Magi
636,Yeppoon,AU,71.38,light rain,-23.1333,150.7333,Villa Mar Colina
638,Gaziantep,TR,53.53,clear sky,37.0594,37.3825,Novotel Gaziantep
639,Skibbereen,IE,53.11,broken clouds,51.55,-9.2667,The West Cork Hotel
645,Bracebridge,CA,81.34,few clouds,45.0334,-79.3163,BRACEBRIDGE INN
646,Biak,ID,77.25,overcast clouds,-0.9131,122.8766,Penginapan Kim
647,Obihiro,JP,50.7,overcast clouds,42.9172,143.2044,Tokachi Gardens Hotel
648,Hun,LY,66.88,light rain,29.1268,15.9477,Alrwasi Hotel
649,Bereda,ES,58.41,overcast clouds,43.2686,-7.5406,Pazo de Verdes
650,Kaseda,JP,70.25,moderate rain,31.4167,130.3167,Sun Stay Kaseda
651,Punta Alta,AR,58.82,overcast clouds,-38.8759,-62.0736,Center Hotel Punta Alta
652,Aloleng,PH,81.81,few clouds,16.1307,119.7824,Steve Walden and Emma Sison-Walden Residence
654,Lubao,PH,82.11,clear sky,14.9167,120.55,Hacienda Gracia
655,Balangir,IN,79.72,broken clouds,20.7167,83.4833,Sarojinee Residency
656,Akyab,MM,79.66,overcast clouds,20.15,92.9,Hotel Memory
659,Sechura,PE,77.14,few clouds,-5.5569,-80.8222,Hospedaje Costa Bella
660,Pokhara,NP,70.34,broken clouds,28.2333,83.9833,OYO 170 Hotel View Point
661,Byron Bay,AU,66.7,light rain,-28.65,153.6167,Backpackers Inn
662,Tatawin,TN,61.65,clear sky,32.9297,10.4518,Sangho Privilege Tataouine
663,Santa Cruz,BO,77.05,broken clouds,-17.8,-63.1667,Aviador Hotel Boutique
664,La Palma,US,75.78,clear sky,33.8464,-118.0467,La Quinta Inn & Suites by Wyndham Buena Park
666,Necochea,AR,55.06,clear sky,-38.5473,-58.7368,dyd -mar Hotel
667,Svetlogorsk,BY,54.1,overcast clouds,52.6333,29.7333,Hotel Svetlogorsk JBIK
669,Deneysville,ZA,55.54,clear sky,-26.8908,28.0971,The VaalLookout
670,Makinsk,KZ,52.47,broken clouds,52.6292,70.4169,Bereke
671,Marcala,HN,81.07,overcast clouds,14.15,-88.0333,INVEMEC Inversiones Emerita Claros
672,Komsomolskiy,UZ,67.1,overcast clouds,40.4272,71.7189,Ikathouse
673,Goderich,CA,61.61,overcast clouds,43.7501,-81.7165,Harmony Inn
674,Manado,ID,77.77,scattered clouds,1.487,124.8455,Aryaduta Hotel
676,Orchard Homes,US,61.92,clear sky,46.8633,-114.0484,Broadway Inn Missoula
678,Houthulst,BE,62.98,light rain,50.9637,2.8986,Pastorie van Merkem
679,Cayenne,GF,83.08,overcast clouds,4.9333,-52.3333,Hôtel Le Dronmi
680,Atambua,ID,71.2,overcast clouds,-9.1061,124.8925,Kost Alfa Flat
682,Nemsova,SK,67.23,scattered clouds,48.967,18.1189,Hotel Dynamic
683,Appleton,US,75.87,overcast clouds,44.2619,-88.4154,La Quinta Inn & Suites by Wyndham Appleton College Avenue
684,Hue,VN,78.91,few clouds,16.4667,107.6,Saigon Morin Hotel
685,Ixtapa,MX,83.43,clear sky,20.7,-105.2,hotel la terminal
687,Plettenberg Bay,ZA,57.0,clear sky,-34.0527,23.3716,Thanda Vista B&B
688,Pisco,PE,68.02,clear sky,-13.7,-76.2167,Hotel San Isidro Oficial
689,Akropong,GH,74.79,overcast clouds,5.9746,-0.0854,Vip Lodge
